[
  {
    "id": "jj-gaeksa-001",
    "name": "객사온반",
    "region": "전주",
    "area": "객사",
    "district": "객리단길",
    "category": "한식",
    "rating": 4.6,
    "review_count": 184,
    "price_range": 12000,
    "distance": 320,
    "tags": ["친구", "저녁", "가성비", "리뷰많음", "따뜻한식사"],
    "reason": "객사 근처라 이동이 쉽고 1인 15000원 이하 메뉴가 있어 친구와 저녁 식사에 적합합니다.",
    "menus": ["전주비빔밥", "한우육회비빔밥", "온반"],
    "opening_hours": "11:00-21:30",
    "latitude": 35.81776,
    "longitude": 127.14808,
    "address": "전북 전주시 완산구 객사길 21"
  },
  {
    "id": "jj-gaeksa-002",
    "name": "객리단길 파스타집",
    "region": "전주",
    "area": "객리단길",
    "district": "객사",
    "category": "양식",
    "rating": 4.5,
    "review_count": 132,
    "price_range": 14500,
    "distance": 410,
    "tags": ["친구", "저녁", "파스타", "가성비", "분위기"],
    "reason": "객리단길에 있어 접근성이 좋고 리뷰 수가 많아 친구와 편하게 저녁을 먹기 좋습니다.",
    "menus": ["토마토 파스타", "크림 리조또", "샐러드"],
    "opening_hours": "11:30-22:00",
    "latitude": 35.81698,
    "longitude": 127.14692,
    "address": "전북 전주시 완산구 전주객사2길 15"
  },
  {
    "id": "jj-gaeksa-003",
    "name": "객사분식당",
    "region": "전주",
    "area": "객사",
    "district": "객사",
    "category": "분식",
    "rating": 4.3,
    "review_count": 96,
    "price_range": 9000,
    "distance": 260,
    "tags": ["친구", "저녁", "가성비", "분식", "리뷰좋음"],
    "reason": "가격 부담이 낮고 리뷰가 충분해 가볍게 친구와 저녁을 먹기 좋은 객사 근처 식당입니다.",
    "menus": ["즉석떡볶이", "김밥", "튀김세트"],
    "opening_hours": "10:30-21:00",
    "latitude": 35.81814,
    "longitude": 127.14733,
    "address": "전북 전주시 완산구 객사3길 8"
  },
  {
    "id": "jj-gaeksa-004",
    "name": "전주객사 초밥상",
    "region": "전주",
    "area": "객사",
    "district": "객리단길",
    "category": "일식",
    "rating": 4.4,
    "review_count": 88,
    "price_range": 15000,
    "distance": 520,
    "tags": ["친구", "저녁", "초밥", "리뷰좋음"],
    "reason": "객사권에서 리뷰가 안정적이고 15000원 안팎의 초밥 메뉴가 있어 친구 모임에 무난합니다.",
    "menus": ["모듬초밥", "연어덮밥", "우동"],
    "opening_hours": "12:00-21:30",
    "latitude": 35.81592,
    "longitude": 127.14857,
    "address": "전북 전주시 완산구 전주객사1길 26"
  },
  {
    "id": "jj-hanok-001",
    "name": "한옥마을 콩나물국밥",
    "region": "전주",
    "area": "한옥마을",
    "district": "완산구",
    "category": "한식",
    "rating": 4.4,
    "review_count": 221,
    "price_range": 8500,
    "distance": 1400,
    "tags": ["아침", "가성비", "혼밥", "리뷰많음"],
    "reason": "전주 한옥마을 근처에서 부담 없는 가격으로 먹기 좋은 국밥집입니다.",
    "menus": ["콩나물국밥", "모주", "수란"],
    "opening_hours": "06:00-20:00",
    "latitude": 35.81512,
    "longitude": 127.1534,
    "address": "전북 전주시 완산구 은행로 44"
  },
  {
    "id": "seoul-hongdae-001",
    "name": "홍대 스시정",
    "region": "서울",
    "area": "홍대",
    "district": "마포구",
    "category": "일식",
    "rating": 4.5,
    "review_count": 143,
    "price_range": 16000,
    "distance": 300,
    "tags": ["초밥", "데이트", "리뷰좋음"],
    "reason": "홍대 근처에서 리뷰가 좋고 초밥을 찾는 요청에 적합합니다.",
    "menus": ["초밥세트", "사시미", "우동"],
    "opening_hours": "11:30-22:00",
    "latitude": 37.55522,
    "longitude": 126.92362,
    "address": "서울 마포구 홍익로 12"
  },
  {
    "id": "daejeon-guam-001",
    "name": "구암역 파스타",
    "region": "대전",
    "area": "구암역",
    "district": "유성구",
    "category": "양식",
    "rating": 4.2,
    "review_count": 74,
    "price_range": 13000,
    "distance": 220,
    "tags": ["파스타", "저녁", "가성비"],
    "reason": "구암역 근처에서 파스타와 저녁 조건에 맞는 후보입니다.",
    "menus": ["알리오올리오", "토마토 파스타", "피자"],
    "opening_hours": "11:30-21:30",
    "latitude": 36.35616,
    "longitude": 127.33134,
    "address": "대전 유성구 구암동 95"
  }
]
